{
"type": "FeatureCollection",
"crs": { "type": "name", "properties": { "name": "urn:ogc:def:crs:OGC:1.3:CRS84" } },
"features": [
{ "type": "Feature", "properties": { "企業名": "琉球アスティーダスポーツクラブ株式会社", "設立日": "2018\/2\/23", "住所": "沖縄県中頭郡中城村登又68-1", "業種": "ビジネスサービス", "事業内容": "日本の卓球リーグ「Tリーグ（ティーリーグ）」に所属するプロ卓...", "詳細URL": "https:\/\/initial.inc\/companies\/A-33486", "緯度": 26.2772559, "経度": 127.788649 }, "geometry": { "type": "Point", "coordinates": [ 127.788649, 26.2772559 ] } },
{ "type": "Feature", "properties": { "企業名": "株式会社Payke", "設立日": "2014\/11\/26", "住所": "沖縄県北谷町美浜1-2-15", "業種": "コンピューター - ソフトウェア", "事業内容": "バーコードをスマホでかざすと商品のあらゆる情報や口コミを利用...", "詳細URL": "https:\/\/initial.inc\/companies\/A-16408", "緯度": 26.3101505, "経度": 127.7616537 }, "geometry": { "type": "Point", "coordinates": [ 127.7616537, 26.3101505 ] } },
{ "type": "Feature", "properties": { "企業名": "ジーエルイー合同会社", "設立日": "2015\/10\/1", "住所": "沖縄県那覇市松尾1-21-61 シティハイム松尾202", "業種": "消費者向けサービス・販売", "事業内容": "「サンゴに優しい日焼け止め」の開発・販売 ネット販売サイト「...", "詳細URL": "https:\/\/initial.inc\/companies\/A-34394", "緯度": 26.2109338, "経度": 127.6832018 }, "geometry": { "type": "Point", "coordinates": [ 127.6832018, 26.2109338 ] } },
{ "type": "Feature", "properties": { "企業名": "株式会社シルクルネッサンス", "設立日": "2018\/1\/1", "住所": "沖縄県名護市字辺野古905", "業種": "バイオテクノロジー", "事業内容": "カイコ無細胞タンパク質合成系および新規高分子セリシンに関する...", "詳細URL": "https:\/\/initial.inc\/companies\/A-34373", "緯度": 26.526011, "経度": 128.0303666 }, "geometry": { "type": "Point", "coordinates": [ 128.0303666, 26.526011 ] } },
{ "type": "Feature", "properties": { "企業名": "株式会社フルステム", "設立日": "2016\/8\/25", "住所": "沖縄県那覇市天久2-1-15 サザンリーフ6階", "業種": "バイオテクノロジー", "事業内容": "脂肪幹細胞の大量培養装置の開発。 次世代型自動高密度大量培養...", "詳細URL": "https:\/\/initial.inc\/companies\/A-29990", "緯度": 26.2304924, "経度": 127.6870663 }, "geometry": { "type": "Point", "coordinates": [ 127.6870663, 26.2304924 ] } },
{ "type": "Feature", "properties": { "企業名": "trevary株式会社", "設立日": "2016\/8\/25", "住所": "沖縄県那覇市字安謝35 メゾンなかほど311号室", "業種": "コンピューター - ITサービス", "事業内容": "「初めての場所における目的地選びの失敗をなくす」をコンセプト...", "詳細URL": "https:\/\/initial.inc\/companies\/A-30892", "緯度": 26.2375095, "経度": 127.6925664 }, "geometry": { "type": "Point", "coordinates": [ 127.6925664, 26.2375095 ] } },
{ "type": "Feature", "properties": { "企業名": "株式会社リビルド", "設立日": "2017\/11\/28", "住所": "沖縄県沖縄市中央1-16-9", "業種": "コンピューター - ITサービス", "事業内容": "エンジニア特化型の仕事紹介コミュニティサービス「Tadoru...", "詳細URL": "https:\/\/initial.inc\/companies\/A-33039", "緯度": 26.3371329, "経度": 127.8002863 }, "geometry": { "type": "Point", "coordinates": [ 127.8002863, 26.3371329 ] } },
{ "type": "Feature", "properties": { "企業名": "株式会社EC-GAIN", "設立日": "2016\/4\/1", "住所": "沖縄県沖縄市山内1-3-25", "業種": "ビジネスサービス", "事業内容": "仕入れリスク無しで無料で誰でも簡単にオンラインセレクトショッ...", "詳細URL": "https:\/\/initial.inc\/companies\/A-29392", "緯度": 26.3262237, "経度": 127.7871956 }, "geometry": { "type": "Point", "coordinates": [ 127.7871956, 26.3262237 ] } },
{ "type": "Feature", "properties": { "企業名": "レキオ・パワー・テクノロジー株式会社", "設立日": "2011\/11\/24", "住所": "沖縄県那覇市西1-20-13 たまきビル3F", "業種": "半導体\/その他電子部品・製品", "事業内容": "発展途上国や教育現場向け超音波スキャナーを開発。", "詳細URL": "https:\/\/initial.inc\/companies\/A-16819", "緯度": 26.2125766, "経度": 127.6707894 }, "geometry": { "type": "Point", "coordinates": [ 127.6707894, 26.2125766 ] } },
{ "type": "Feature", "properties": { "企業名": "株式会社RambleOn", "設立日": "2016\/1\/12", "住所": "沖縄県那覇市天久1丁目10-10 Kr新都心1-C", "業種": "コンピューター - ソフトウェア", "事業内容": "専用スキンケメソッドアプリ「Befy(ベフィ)」を展開。 ブ...", "詳細URL": "https:\/\/initial.inc\/companies\/A-28899", "緯度": 26.2310194, "経度": 127.6918862 }, "geometry": { "type": "Point", "coordinates": [ 127.6918862, 26.2310194 ] } },
{ "type": "Feature", "properties": { "企業名": "ジョブマネ株式会社", "設立日": "2017\/10\/25", "住所": "沖縄県那覇市壺川3-4-26 オキジム壺川ビル5F", "業種": "コンピューター - ソフトウェア", "事業内容": "ベンチャー企業向けオールインワンジョブマネジメントツール「ジ...", "詳細URL": "https:\/\/initial.inc\/companies\/A-29393", "緯度": 26.2068437, "経度": 127.6796536 }, "geometry": { "type": "Point", "coordinates": [ 127.6796536, 26.2068437 ] } },
{ "type": "Feature", "properties": { "企業名": "株式会社Alpaca.Lab", "設立日": "2018\/8\/27", "住所": "沖縄県宜野湾市宇地泊558-18 2F", "業種": "コンピューター - ITサービス", "事業内容": "IoT、AIを活用した運転代行プラットフォームの開発。 産学...", "詳細URL": "https:\/\/initial.inc\/companies\/A-32631", "緯度": 26.2739408, "経度": 127.7289589 }, "geometry": { "type": "Point", "coordinates": [ 127.7289589, 26.2739408 ] } },
{ "type": "Feature", "properties": { "企業名": "トライエア株式会社", "設立日": "2014\/12\/5", "住所": "沖縄県豊見城市豊崎1-411", "業種": "消費者向けサービス・販売", "事業内容": "フライトシミュレータの開発・作成・メンテナンスまでを一括して...", "詳細URL": "https:\/\/initial.inc\/companies\/A-33729", "緯度": 26.1594395, "経度": 127.660073 }, "geometry": { "type": "Point", "coordinates": [ 127.660073, 26.1594395 ] } },
{ "type": "Feature", "properties": { "企業名": "株式会社デジリード", "設立日": "2016\/4\/21", "住所": "沖縄県那覇市銘苅3-21-5 3F", "業種": "コンピューター - ITサービス", "事業内容": "AIコミュニケーションプラットフォーム「O-chat（オーチ...", "詳細URL": "https:\/\/initial.inc\/companies\/A-29770", "緯度": null, "経度": null }, "geometry": null },
{ "type": "Feature", "properties": { "企業名": "アディッシュプラス株式会社", "設立日": "2012\/6\/1", "住所": "沖縄県那覇市久茂地1-7-1 琉球リース総合ビル9F", "業種": "コンピューター - ITサービス", "事業内容": "ゲームアプリ用サポートサービス「Form-Cloud」の提供...", "詳細URL": "https:\/\/initial.inc\/companies\/A-33668", "緯度": 26.2149588, "経度": 127.677945 }, "geometry": { "type": "Point", "coordinates": [ 127.677945, 26.2149588 ] } },
{ "type": "Feature", "properties": { "企業名": "エスビージャパン株式会社", "設立日": "2007\/6\/26", "住所": "沖縄県那覇市具志3-38-22", "業種": "産業・エネルギー", "事業内容": "・セールスプロモーション（販売促進）事業 ・発売後90日以内...", "詳細URL": "https:\/\/initial.inc\/companies\/A-04175", "緯度": 26.1774597, "経度": 127.6543444 }, "geometry": { "type": "Point", "coordinates": [ 127.6543444, 26.1774597 ] } },
{ "type": "Feature", "properties": { "企業名": "株式会社カタリスト", "設立日": "2015\/6\/1", "住所": "沖縄県那覇市字天久1166-9 丸清ビル3B-a", "業種": "コンピューター - ソフトウェア", "事業内容": "病院の予約情報や診療点数を管理するコンピューターの情報を同じ...", "詳細URL": "https:\/\/initial.inc\/companies\/A-29992", "緯度": 26.2313257, "経度": 127.681363 }, "geometry": { "type": "Point", "coordinates": [ 127.681363, 26.2313257 ] } },
{ "type": "Feature", "properties": { "企業名": "ワイズグローバルビジョン株式会社", "設立日": "2012\/9\/20", "住所": "沖縄県うるま市勝連南風原5192-47", "業種": "環境関連", "事業内容": "小型の海水淡水化装置「MYZシリーズ」をはじめ、高性能浄水器...", "詳細URL": "https:\/\/initial.inc\/companies\/A-28344", "緯度": 26.3370418, "経度": 127.8593485 }, "geometry": { "type": "Point", "coordinates": [ 127.8593485, 26.3370418 ] } },
{ "type": "Feature", "properties": { "企業名": "ソーシャルバンクZAIZEN株式会社", "設立日": "2012\/3\/1", "住所": "沖縄県浦添市仲西3-15-5 財全GROUP・BLD", "業種": "金融・保険・不動産 ICT", "事業内容": "融資型クラウドファンディングサービス「Pocket Fund...", "詳細URL": "https:\/\/initial.inc\/companies\/A-32656", "緯度": 26.245992, "経度": 127.6966265 }, "geometry": { "type": "Point", "coordinates": [ 127.6966265, 26.245992 ] } },
{ "type": "Feature", "properties": { "企業名": "琉球インタラクティブ株式会社", "設立日": "2009\/2\/5", "住所": "沖縄県宜野湾市大山3-11-32", "業種": "コンピューター - ITサービス", "事業内容": "インターネットサービス事業 次世代人材育成事業 戦略投資事業", "詳細URL": "https:\/\/initial.inc\/companies\/A-16562", "緯度": 26.2856787, "経度": 127.7538706 }, "geometry": { "type": "Point", "coordinates": [ 127.7538706, 26.2856787 ] } },
{ "type": "Feature", "properties": { "企業名": "株式会社Grancell", "設立日": "2017\/2\/1", "住所": "沖縄県中頭郡西原町千原1 琉大地域創生総合研究棟207号室", "業種": "医療・ヘルスケア", "事業内容": "細胞培養技術を応用した化粧品の製造と販売 アンチエージング効...", "詳細URL": "https:\/\/initial.inc\/companies\/A-28661", "緯度": 26.25315, "経度": 127.7658556 }, "geometry": { "type": "Point", "coordinates": [ 127.7658556, 26.25315 ] } },
{ "type": "Feature", "properties": { "企業名": "沖縄プロテイントモグラフィー株式会社", "設立日": "2014\/6\/25", "住所": "沖縄県国頭郡恩納村字恩納7542 OIST事務所", "業種": "バイオテクノロジー ICT", "事業内容": "顧客から受け取った各種サンプル(タンパク質)の分子構造を3次...", "詳細URL": "https:\/\/initial.inc\/companies\/A-15704", "緯度": 26.4753695, "経度": 127.8335769 }, "geometry": { "type": "Point", "coordinates": [ 127.8335769, 26.4753695 ] } },
{ "type": "Feature", "properties": { "企業名": "オーピーバイオファクトリー株式会社", "設立日": "2006\/2\/23", "住所": "沖縄県うるま市州崎5-8 沖縄ライフサイエンス研究センター107", "業種": "バイオテクノロジー", "事業内容": "沖縄の多様な海洋生物資源（海洋生物、微生物、微細藻類）の収集...", "詳細URL": "https:\/\/initial.inc\/companies\/A-11610", "緯度": 26.3348082, "経度": 127.8482876 }, "geometry": { "type": "Point", "coordinates": [ 127.8482876, 26.3348082 ] } },
{ "type": "Feature", "properties": { "企業名": "株式会社マグナデザインネット", "設立日": "2001\/3\/5", "住所": "沖縄県那覇市前島3-1-15 大同生命那覇ビル4階", "業種": "半導体\/その他電子部品・製品", "事業内容": "ポータブルLTEエアーアナライザ『MDN-F6』など、地上デ...", "詳細URL": "https:\/\/initial.inc\/companies\/A-11619", "緯度": 26.2217893, "経度": 127.6828476 }, "geometry": { "type": "Point", "coordinates": [ 127.6828476, 26.2217893 ] } },
{ "type": "Feature", "properties": { "企業名": "株式会社てぃーだスクエア", "設立日": "2010\/2\/1", "住所": "沖縄県浦添市西原2-4-1 P’s SQUARE 301", "業種": "ビジネスサービス", "事業内容": "沖縄地域ブログ「てぃーだブログ」、ビジネス支援施設「てぃーだ...", "詳細URL": "https:\/\/initial.inc\/companies\/A-06076", "緯度": 26.2560279, "経度": 127.7400595 }, "geometry": { "type": "Point", "coordinates": [ 127.7400595, 26.2560279 ] } },
{ "type": "Feature", "properties": { "企業名": "株式会社ブルーブックス", "設立日": "2002\/3\/1", "住所": "沖縄県那覇市久茂地2丁目2-2 タイムスビル6F", "業種": "医療・ヘルスケア ICT", "事業内容": "健康支援システム『健康マイページ』の企画・販売。被保険者と保...", "詳細URL": "https:\/\/initial.inc\/companies\/A-28085", "緯度": 26.2156715, "経度": 127.6790215 }, "geometry": { "type": "Point", "coordinates": [ 127.6790215, 26.2156715 ] } },
{ "type": "Feature", "properties": { "企業名": "株式会社ドリーム・アーツ沖縄", "設立日": "2004\/6\/10", "住所": "沖縄県那覇市前島3-25-1 泊ふ頭旅客ターミナルビルディング2階", "業種": "コンピューター - ITサービス", "事業内容": "沖縄観光情報Webサイト「Okinawa2Go!」の運営。 ...", "詳細URL": "https:\/\/initial.inc\/companies\/A-11043", "緯度": 26.2236035, "経度": 127.6837669 }, "geometry": { "type": "Point", "coordinates": [ 127.6837669, 26.2236035 ] } },
{ "type": "Feature", "properties": { "企業名": "ソムノクエスト株式会社", "設立日": "2006\/9\/1", "住所": "沖縄県那覇市泉崎1-16-3 石川ビル1F", "業種": "医療・ヘルスケア", "事業内容": "昔から「眠れないときやイライラしたときにいい」と語り継がれて...", "詳細URL": "https:\/\/initial.inc\/companies\/A-11797", "緯度": 26.2116202, "経度": 127.6774809 }, "geometry": { "type": "Point", "coordinates": [ 127.6774809, 26.2116202 ] } },
{ "type": "Feature", "properties": { "企業名": "アイ・ムーヴ株式会社", "設立日": "2007\/8\/23", "住所": "沖縄県中頭郡西原町上原2-7-1-201", "業種": "コンピューター - ソフトウェア", "事業内容": "自社で開発したSaaS型の業務システムや、コンシューマ向けの...", "詳細URL": "https:\/\/initial.inc\/companies\/A-12699", "緯度": 26.241802, "経度": 127.7648289 }, "geometry": { "type": "Point", "coordinates": [ 127.7648289, 26.241802 ] } },
{ "type": "Feature", "properties": { "企業名": "株式会社ジェクタス・イノベーターズ", "設立日": "2011\/11\/10", "住所": "沖縄県那覇市壺屋1-29-15 705", "業種": "バイオテクノロジー", "事業内容": "感染症対策研究拠点構築事業(マラリア、インフルエンザ等の亜熱...", "詳細URL": "https:\/\/initial.inc\/companies\/A-12619", "緯度": 26.212186, "経度": 127.693082 }, "geometry": { "type": "Point", "coordinates": [ 127.693082, 26.212186 ] } },
{ "type": "Feature", "properties": { "企業名": "リムコ株式会社", "設立日": "2011\/2\/10", "住所": "沖縄県うるま市州崎12-75 バイオテクノロジー研究開発センター106号室", "業種": "バイオテクノロジー", "事業内容": "HIVや組換え梅毒抗原などの診断薬抗体・抗原を開発・販売。 ...", "詳細URL": "https:\/\/initial.inc\/companies\/A-31293", "緯度": 26.339477, "経度": 127.854137 }, "geometry": { "type": "Point", "coordinates": [ 127.854137, 26.339477 ] } },
{ "type": "Feature", "properties": { "企業名": "株式会社SummerTimeStudio", "設立日": "2011\/6\/1", "住所": "沖縄県宜野湾市普天間2-50-7", "業種": "コンピューター - ソフトウェア", "事業内容": "タブレット・スマートフォンゲーム開発", "詳細URL": "https:\/\/initial.inc\/companies\/A-12954", "緯度": 26.2915426, "経度": 127.7767192 }, "geometry": { "type": "Point", "coordinates": [ 127.7767192, 26.2915426 ] } },
{ "type": "Feature", "properties": { "企業名": "LiLz株式会社", "設立日": "2017\/7\/28", "住所": "沖縄県中頭郡西原町字千原1番地 琉球大学産学官連携棟 202号室", "業種": "コンピューター - ソフトウェア", "事業内容": "AI・IoT専門家と行うサービス設計合宿「LiLz Boot...", "詳細URL": "https:\/\/initial.inc\/companies\/A-29381", "緯度": 26.2535814, "経度": 127.7661114 }, "geometry": { "type": "Point", "coordinates": [ 127.7661114, 26.2535814 ] } },
{ "type": "Feature", "properties": { "企業名": "株式会社アクティエージェント", "設立日": "2006\/8\/4", "住所": "沖縄県島尻郡南風原町兼城206", "業種": "コンピューター - ハードウェア", "事業内容": "360度VR動画の撮影・加工・編集・システム開発 VRヘッド...", "詳細URL": "https:\/\/initial.inc\/companies\/A-27347", "緯度": 26.195824, "経度": 127.7266752 }, "geometry": { "type": "Point", "coordinates": [ 127.7266752, 26.195824 ] } },
{ "type": "Feature", "properties": { "企業名": "株式会社プルアラウンド", "設立日": "2017\/4\/24", "住所": "沖縄県那覇市曙3-19-27", "業種": "コンピューター - ITサービス", "事業内容": "IoTスマートプレートを活用したEC事業 HP制作や企業ブラ...", "詳細URL": "https:\/\/initial.inc\/companies\/A-29395", "緯度": 26.2416283, "経度": 127.683285 }, "geometry": { "type": "Point", "coordinates": [ 127.683285, 26.2416283 ] } },
{ "type": "Feature", "properties": { "企業名": "株式会社セキュアイノベーション", "設立日": "2015\/10\/21", "住所": "沖縄県那覇市上之屋1-18-36", "業種": "コンピューター - ソフトウェア", "事業内容": "コンピュータ関連、セキュリティ、ネットワークシステムの設計、...", "詳細URL": "https:\/\/initial.inc\/companies\/A-31016", "緯度": 26.2297969, "経度": 127.6893924 }, "geometry": { "type": "Point", "coordinates": [ 127.6893924, 26.2297969 ] } },
{ "type": "Feature", "properties": { "企業名": "株式会社ジャスミンソフト", "設立日": "2001\/3\/14", "住所": "沖縄県宜野湾市宇地泊902-1", "業種": "コンピューター - ソフトウェア", "事業内容": "Java, XML 技術を用いたパッケージソフトウェアの提供...", "詳細URL": "https:\/\/initial.inc\/companies\/A-05899", "緯度": 26.2720727, "経度": 127.7277546 }, "geometry": { "type": "Point", "coordinates": [ 127.7277546, 26.2720727 ] } },
{ "type": "Feature", "properties": { "企業名": "株式会社コーラルカーム", "設立日": "2005\/10\/1", "住所": "沖縄県宜野湾市伊佐2-11-1", "業種": "消費者向けサービス・販売", "事業内容": "・沖縄ダイビングスクール、ダイビング店、ツアー企画・運営 ・...", "詳細URL": "https:\/\/initial.inc\/companies\/A-04725", "緯度": 26.2889778, "経度": 127.7558424 }, "geometry": { "type": "Point", "coordinates": [ 127.7558424, 26.2889778 ] } },
{ "type": "Feature", "properties": { "企業名": "アクシオヘリックス株式会社", "設立日": "2001\/6\/1", "住所": "沖縄県那覇市西2-16-3 屋島組本社ビル2-A号室", "業種": "コンピューター - ソフトウェア", "事業内容": "バイオテクノロジー分野のコンピュータソフトウェアの研究開発", "詳細URL": "https:\/\/initial.inc\/companies\/A-05843", "緯度": 26.2147256, "経度": 127.6699678 }, "geometry": { "type": "Point", "coordinates": [ 127.6699678, 26.2147256 ] } },
{ "type": "Feature", "properties": { "企業名": "株式会社メクマ", "設立日": "2017\/2\/1", "住所": "沖縄県宮古島市平良東仲宗根20-2F", "業種": "消費者向けサービス・販売", "事業内容": "C to C向けシェアリングエコノミーサービス構築プラットフ...", "詳細URL": "https:\/\/initial.inc\/companies\/A-30782", "緯度": 24.8075622, "経度": 125.2817432 }, "geometry": { "type": "Point", "coordinates": [ 125.2817432, 24.8075622 ] } },
{ "type": "Feature", "properties": { "企業名": "ユーアンドアイ株式会社", "設立日": "2017\/4\/3", "住所": "沖縄県沖縄市登川3-23-18 201", "業種": "コンピューター - ソフトウェア", "事業内容": "スモールビジネス向け経営支援システム「Mango」の展開", "詳細URL": "https:\/\/initial.inc\/companies\/A-29993", "緯度": 26.3738379, "経度": 127.8231417 }, "geometry": { "type": "Point", "coordinates": [ 127.8231417, 26.3738379 ] } },
{ "type": "Feature", "properties": { "企業名": "株式会社びねつ", "設立日": "2015\/2\/26", "住所": "沖縄県糸満市字真栄里703番地の5", "業種": "ビジネスサービス", "事業内容": "成果報酬型求人サイト「ジョブカロリ」の運営 WEBサイト制作", "詳細URL": "https:\/\/initial.inc\/companies\/A-28623", "緯度": 26.1142021, "経度": 127.675597 }, "geometry": { "type": "Point", "coordinates": [ 127.675597, 26.1142021 ] } },
{ "type": "Feature", "properties": { "企業名": "沖縄クロス・ヘッド株式会社", "設立日": "2006\/6\/21", "住所": "沖縄県那覇市旭町1-9 カフーナ旭橋B街区ビル3階", "業種": "コンピューター - ITサービス", "事業内容": "県内のIT人材育成・教育 ネットワーク・サーバ構築、データセ...", "詳細URL": "https:\/\/initial.inc\/companies\/A-06053", "緯度": 26.2113208, "経度": 127.6764053 }, "geometry": { "type": "Point", "coordinates": [ 127.6764053, 26.2113208 ] } },
{ "type": "Feature", "properties": { "企業名": "琉球ボーテ株式会社", "設立日": "2017\/4\/26", "住所": "沖縄県中頭郡西原町字千原1番地 国立大学法人琉球大学 地域創生総合研究棟208号室", "業種": "バイオテクノロジー", "事業内容": "沖縄県産シークヮーサーの残さから抽出したエキスなどを活用した...", "詳細URL": "https:\/\/initial.inc\/companies\/A-28671", "緯度": 26.25315, "経度": 127.7658556 }, "geometry": { "type": "Point", "coordinates": [ 127.7658556, 26.25315 ] } },
{ "type": "Feature", "properties": { "企業名": "株式会社na", "設立日": "2011\/7\/12", "住所": "沖縄県宜野湾市宇地泊558 宜野湾ベイサイド情報センター", "業種": "消費者向けサービス・販売", "事業内容": "ハンドメイド作品の公開やコミュニティ機能のほか、友達申請、販...", "詳細URL": "https:\/\/initial.inc\/companies\/A-06274", "緯度": 26.2739156, "経度": 127.729014 }, "geometry": { "type": "Point", "coordinates": [ 127.729014, 26.2739156 ] } },
{ "type": "Feature", "properties": { "企業名": "株式会社タンクル", "設立日": "2013\/10\/8", "住所": "沖縄県糸満市大度69", "業種": "消費者向けサービス・販売", "事業内容": "ウェブ制作・システム開発 ウェブ上の直売所「Farm’s M...", "詳細URL": "https:\/\/initial.inc\/companies\/A-16879", "緯度": 26.0956704, "経度": 127.7021273 }, "geometry": { "type": "Point", "coordinates": [ 127.7021273, 26.0956704 ] } },
{ "type": "Feature", "properties": { "企業名": "株式会社GIOT", "設立日": "2011\/11\/24", "住所": "沖縄県うるま市字州崎14-1 沖縄IT津梁パーク 情報通信機器検証拠点施設", "業種": "コンピューター - ITサービス", "事業内容": "IT機器の相互互換性検証 アント゛ロイト゛関連の「動作確認」...", "詳細URL": "https:\/\/initial.inc\/companies\/A-11620", "緯度": 26.3419781, "経度": 127.8617032 }, "geometry": { "type": "Point", "coordinates": [ 127.8617032, 26.3419781 ] } },
{ "type": "Feature", "properties": { "企業名": "有限会社生物資源研究所", "設立日": "2001\/1\/1", "住所": "沖縄県名護市字名護4607-42", "業種": "バイオテクノロジー", "事業内容": "抗癌薬の研究開発 沖縄県内に生育しているショウキズイセン及び...", "詳細URL": "https:\/\/initial.inc\/companies\/A-11226", "緯度": 26.6100863, "経度": 127.9940351 }, "geometry": { "type": "Point", "coordinates": [ 127.9940351, 26.6100863 ] } },
{ "type": "Feature", "properties": { "企業名": "株式会社アイセック･ジャパン", "設立日": "2008\/9\/1", "住所": "沖縄県うるま市川崎468 いちゅい具志川じんぶん館１F", "業種": "コンピューター - ITサービス", "事業内容": "公演などでの音声部分を「文字情報」にして聴覚障がい者ら向けの...", "詳細URL": "https:\/\/initial.inc\/companies\/A-10848", "緯度": 26.3805367, "経度": 127.8397539 }, "geometry": { "type": "Point", "coordinates": [ 127.8397539, 26.3805367 ] } },
{ "type": "Feature", "properties": { "企業名": "株式会社プロシューマー", "設立日": "2010\/10\/12", "住所": "沖縄県沖縄市東1丁目1-9", "業種": "消費者向けサービス・販売", "事業内容": "イベント企画をお得なキャンペーン等でサポートするwebサイト...", "詳細URL": "https:\/\/initial.inc\/companies\/A-12291", "緯度": 26.3408217, "経度": 127.8180808 }, "geometry": { "type": "Point", "coordinates": [ 127.8180808, 26.3408217 ] } },
{ "type": "Feature", "properties": { "企業名": "Leevice Inc.", "設立日": "2013\/2\/14", "住所": "沖縄県那覇市小禄390", "業種": "コンピューター - ソフトウェア", "事業内容": "中高生向けの招待制SNSサイト「Leevice（リーヴェス）...", "詳細URL": "https:\/\/initial.inc\/companies\/A-17097", "緯度": 26.1986454, "経度": 127.6753941 }, "geometry": { "type": "Point", "coordinates": [ 127.6753941, 26.1986454 ] } },
{ "type": "Feature", "properties": { "企業名": "株式会社ミノタケ", "設立日": "2013\/4\/26", "住所": "沖縄県宜野湾市宇地泊558-18 宜野湾ベイサイド情報センター 2F Gwave Incubate内", "業種": "消費者向けサービス・販売", "事業内容": "動画サイトのみどころを集めるサイト「みどころ.com」の運営", "詳細URL": "https:\/\/initial.inc\/companies\/A-12420", "緯度": 26.2739408, "経度": 127.7289589 }, "geometry": { "type": "Point", "coordinates": [ 127.7289589, 26.2739408 ] } },
{ "type": "Feature", "properties": { "企業名": "ランプサーブ株式会社", "設立日": "2011\/3\/14", "住所": "沖縄県那覇市松尾1-12-8 2F", "業種": "コンピューター - ソフトウェア", "事業内容": "可視光通信ネットワークICチップの研究開発 特にスマートフォ...", "詳細URL": "https:\/\/initial.inc\/companies\/A-12154", "緯度": 26.2135805, "経度": 127.6848224 }, "geometry": { "type": "Point", "coordinates": [ 127.6848224, 26.2135805 ] } },
{ "type": "Feature", "properties": { "企業名": "株式会社サウスプロダクト", "設立日": "2003\/2\/5", "住所": "沖縄県うるま市州崎12-75 沖縄健康バイオテクノロジー研究開発センター", "業種": "バイオテクノロジー", "事業内容": "沖縄モズクやシークヮーサーといった長寿県沖縄の特産物の機能性...", "詳細URL": "https:\/\/initial.inc\/companies\/A-11798", "緯度": 26.339477, "経度": 127.854137 }, "geometry": { "type": "Point", "coordinates": [ 127.854137, 26.339477 ] } },
{ "type": "Feature", "properties": { "企業名": "グローバルネットワークサービス株式会社", "設立日": "2007\/4\/1", "住所": "沖縄県石垣市登野城653-4", "業種": "コンピューター - ソフトウェア", "事業内容": "iPod touch および iPhoneに対応したPOSシ...", "詳細URL": "https:\/\/initial.inc\/companies\/A-11624", "緯度": 24.3375134, "経度": 124.1673403 }, "geometry": { "type": "Point", "coordinates": [ 124.1673403, 24.3375134 ] } },
{ "type": "Feature", "properties": { "企業名": "沖縄スーパーコンテンツ株式会社", "設立日": "2011\/7\/1", "住所": "沖縄県那覇市高良3丁目8-23 眞浩商事ビル402号室", "業種": "ビジネスサービス", "事業内容": "沖縄をテーマに地元出版社が発行した書籍や雑誌を電子書籍化し、...", "詳細URL": "https:\/\/initial.inc\/companies\/A-10865", "緯度": 26.1893253, "経度": 127.6594903 }, "geometry": { "type": "Point", "coordinates": [ 127.6594903, 26.1893253 ] } },
{ "type": "Feature", "properties": { "企業名": "株式会社レーザーテクノメディカル", "設立日": "2011\/4\/26", "住所": "沖縄県那覇市西2丁目16-3 2-B", "業種": "医療・ヘルスケア", "事業内容": "医療用レーザー装置、体外衝撃波結石破砕装置（ESWL）、等の...", "詳細URL": "https:\/\/initial.inc\/companies\/A-10697", "緯度": 26.2147256, "経度": 127.6699678 }, "geometry": { "type": "Point", "coordinates": [ 127.6699678, 26.2147256 ] } },
{ "type": "Feature", "properties": { "企業名": "株式会社マリンコムズ琉球", "設立日": "2011\/4\/18", "住所": "沖縄県那覇市小禄1-20-9", "業種": "半導体\/その他電子部品・製品", "事業内容": "光を使って水中で通信する水中可視光通信 UVLC (Unde...", "詳細URL": "https:\/\/initial.inc\/companies\/A-10524", "緯度": 26.1936447, "経度": 127.6782728 }, "geometry": { "type": "Point", "coordinates": [ 127.6782728, 26.1936447 ] } },
{ "type": "Feature", "properties": { "企業名": "うるまバイオ株式会社", "設立日": "2006\/3\/31", "住所": "沖縄県うるま市字州崎13-33", "業種": "消費者向けサービス・販売", "事業内容": "オキナワモズクより抽出製造のフコイダンを使った健康食品、化粧...", "詳細URL": "https:\/\/initial.inc\/companies\/A-06028", "緯度": 26.3384754, "経度": 127.859645 }, "geometry": { "type": "Point", "coordinates": [ 127.859645, 26.3384754 ] } },
{ "type": "Feature", "properties": { "企業名": "株式会社バイオマス再資源化センター", "設立日": "2007\/9\/12", "住所": "沖縄県うるま市字州崎13-35", "業種": "環境関連", "事業内容": "建築廃材等の木質系産業廃棄物（バイオマス資源）を利用した木質...", "詳細URL": "https:\/\/initial.inc\/companies\/A-05463", "緯度": 26.3345138, "経度": 127.855459 }, "geometry": { "type": "Point", "coordinates": [ 127.855459, 26.3345138 ] } },
{ "type": "Feature", "properties": { "企業名": "有限会社Line Work", "設立日": "2006\/4\/12", "住所": "沖縄県那覇市銘苅3-21-5", "業種": "ビジネスサービス", "事業内容": "飲食店を中心とした実店舗のトータルプロデュース（POPやチラ...", "詳細URL": "https:\/\/initial.inc\/companies\/A-05125", "緯度": 26.2335241, "経度": 127.701338 }, "geometry": { "type": "Point", "coordinates": [ 127.701338, 26.2335241 ] } },
{ "type": "Feature", "properties": { "企業名": "株式会社インタラクティブラボラトリー沖縄", "設立日": "2011\/1\/11", "住所": "沖縄県うるま市字川崎468 じんぶん館1F", "業種": "コンピューター - ソフトウェア", "事業内容": "民生用・産業用のインタラクティブメディアや機器にかかわる高難...", "詳細URL": "https:\/\/initial.inc\/companies\/A-28026", "緯度": 26.3805367, "経度": 127.8397539 }, "geometry": { "type": "Point", "coordinates": [ 127.8397539, 26.3805367 ] } },
{ "type": "Feature", "properties": { "企業名": "株式会社サイバーファーム", "設立日": "2000\/3\/15", "住所": "沖縄県那覇市字鏡水崎原地先", "業種": "ビジネスサービス", "事業内容": "顧客ビジネスの課題に対して、情報通信技術を中心とするソリュー...", "詳細URL": "https:\/\/initial.inc\/companies\/A-00746", "緯度": 26.2143767, "経度": 127.6509266 }, "geometry": { "type": "Point", "coordinates": [ 127.6509266, 26.2143767 ] } }
]
}
