{
"type": "FeatureCollection",
"crs": { "type": "name", "properties": { "name": "urn:ogc:def:crs:OGC:1.3:CRS84" } },
"features": [
{ "type": "Feature", "properties": { "県名": "沖縄県", "スポット": "ふるさと文化センター", "住所": "Zaisho, Minamidaito, Shimajiri District, Okinawa 901-3805, Japan", "lat": 25.8290633, "lon": 131.2295487 }, "geometry": { "type": "Point", "coordinates": [ 131.2295487, 25.8290633 ] } },
{ "type": "Feature", "properties": { "県名": "沖縄県", "スポット": "シュガートレイン", "住所": "Japan, 〒903-0821 Okinawa, Naha, Shurigibochō, 2-chōme−１３ ２階", "lat": 26.2242833, "lon": 127.7178542 }, "geometry": { "type": "Point", "coordinates": [ 127.7178542, 26.2242833 ] } },
{ "type": "Feature", "properties": { "県名": "沖縄県", "スポット": "バリバリ岩", "住所": "Kita, Minamidaito, Shimajiri District, Okinawa 901-3801, Japan", "lat": 25.8686695, "lon": 131.238723 }, "geometry": { "type": "Point", "coordinates": [ 131.238723, 25.8686695 ] } },
{ "type": "Feature", "properties": { "県名": "沖縄県", "スポット": "南大東漁港", "住所": "161 Kita, Minamidaito, Shimajiri District, Okinawa 901-3801, Japan", "lat": 25.8692002, "lon": 131.2280487 }, "geometry": { "type": "Point", "coordinates": [ 131.228048699999988, 25.8692002 ] } },
{ "type": "Feature", "properties": { "県名": "沖縄県", "スポット": "星野洞", "住所": "64 Kita, Minamidaito, Shimajiri District, Okinawa 901-3801, Japan", "lat": 25.8577641, "lon": 131.224315 }, "geometry": { "type": "Point", "coordinates": [ 131.224315, 25.8577641 ] } },
{ "type": "Feature", "properties": { "県名": "沖縄県", "スポット": "日の丸山展望台", "住所": "Minami, Minamidaito, Shimajiri District, Okinawa 901-3804, Japan", "lat": 25.8212766, "lon": 131.2429712 }, "geometry": { "type": "Point", "coordinates": [ 131.2429712, 25.8212766 ] } },
{ "type": "Feature", "properties": { "県名": "沖縄県", "スポット": "南大東島秘境探検ツアー", "住所": "Minamidaitōjima, Minamidaito, Shimajiri District, Okinawa, Japan", "lat": 25.848778, "lon": 131.2507325 }, "geometry": { "type": "Point", "coordinates": [ 131.2507325, 25.848778 ] } },
{ "type": "Feature", "properties": { "県名": "沖縄県", "スポット": "海軍棒プール", "住所": "Kyuto, Minamidaito, Shimajiri District, Okinawa 901-3803, Japan", "lat": 25.8326262, "lon": 131.267227 }, "geometry": { "type": "Point", "coordinates": [ 131.267227, 25.8326262 ] } }
]
}
