{
"type": "FeatureCollection",
"crs": { "type": "name", "properties": { "name": "urn:ogc:def:crs:OGC:1.3:CRS84" } },
"features": [
{ "type": "Feature", "properties": { "県名": "沖縄県", "スポット": "東ヤマトゥガー", "住所": "Nishi, Aguni, Shimajiri District, Okinawa 901-3703, Japan", "lat": 26.5775386, "lon": 127.2223697 }, "geometry": { "type": "Point", "coordinates": [ 127.2223697, 26.5775386 ] } },
{ "type": "Feature", "properties": { "県名": "沖縄県", "スポット": "ヤヒジャ海岸", "住所": "Nishi, Aguni, Shimajiri District, Okinawa 901-3703, Japan", "lat": 26.5777446, "lon": 127.217819 }, "geometry": { "type": "Point", "coordinates": [ 127.217819, 26.5777446 ] } },
{ "type": "Feature", "properties": { "県名": "沖縄県", "スポット": "マハナ展望台", "住所": "Nishi, Aguni, Shimajiri District, Okinawa 901-3703, Japan", "lat": 26.5763645, "lon": 127.210179 }, "geometry": { "type": "Point", "coordinates": [ 127.210179, 26.5763645 ] } },
{ "type": "Feature", "properties": { "県名": "沖縄県", "スポット": "大正池公園", "住所": "Taishoike Park, 255 Nishi, Aguni, Shimajiri District, Okinawa 901-3703, Japan", "lat": 26.5826434, "lon": 127.2219167 }, "geometry": { "type": "Point", "coordinates": [ 127.2219167, 26.5826434 ] } },
{ "type": "Feature", "properties": { "県名": "沖縄県", "スポット": "洞寺", "住所": "Okinawa, Japan", "lat": 26.1201911, "lon": 127.7025012 }, "geometry": { "type": "Point", "coordinates": [ 127.7025012, 26.1201911 ] } },
{ "type": "Feature", "properties": { "県名": "沖縄県", "スポット": "西御願所", "住所": "Nishi, Aguni, Shimajiri District, Okinawa 901-3703, Japan", "lat": 26.5833706, "lon": 127.2221939 }, "geometry": { "type": "Point", "coordinates": [ 127.2221939, 26.5833706 ] } },
{ "type": "Feature", "properties": { "県名": "沖縄県", "スポット": "石垣・フクギ並木", "住所": "Ishigaki, Okinawa, Japan", "lat": 24.3406856, "lon": 124.1555837 }, "geometry": { "type": "Point", "coordinates": [ 124.1555837, 24.3406856 ] } },
{ "type": "Feature", "properties": { "県名": "沖縄県", "スポット": "ウーグの浜(長浜ビーチ)", "住所": "Okinawa, Japan", "lat": 26.1201911, "lon": 127.7025012 }, "geometry": { "type": "Point", "coordinates": [ 127.7025012, 26.1201911 ] } },
{ "type": "Feature", "properties": { "県名": "沖縄県", "スポット": "照喜名原のモンパノキの群落", "住所": "Okinawa, Japan", "lat": 26.1201911, "lon": 127.7025012 }, "geometry": { "type": "Point", "coordinates": [ 127.7025012, 26.1201911 ] } },
{ "type": "Feature", "properties": { "県名": "沖縄県", "スポット": "西の浜(ボージャー)", "住所": "Okinawa, Japan", "lat": 26.1201911, "lon": 127.7025012 }, "geometry": { "type": "Point", "coordinates": [ 127.7025012, 26.1201911 ] } }
]
}
