{
"type": "FeatureCollection",
"crs": { "type": "name", "properties": { "name": "urn:ogc:def:crs:OGC:1.3:CRS84" } },
"features": [
{ "type": "Feature", "properties": { "県名": "沖縄県", "スポット": "レンタサイクル「しまそらポタリング」", "住所": "Japan, 〒906-0507 Okinawa, Miyakojima, Irabu, Sawada−１７２７ 蕃地にみやこ下地島空港ターミナル", "lat": 24.8282672, "lon": 125.1497406 }, "geometry": { "type": "Point", "coordinates": [ 125.1497406, 24.8282672 ] } },
{ "type": "Feature", "properties": { "県名": "沖縄県", "スポット": "佐和田の浜", "住所": "SAWATA NO HAMA, Sawada-1725 Irabu, Miyakojima, Okinawa 906-0000, Japan", "lat": 24.8377299, "lon": 125.1572351 }, "geometry": { "type": "Point", "coordinates": [ 125.1572351, 24.8377299 ] } },
{ "type": "Feature", "properties": { "県名": "沖縄県", "スポット": "BOTTA", "住所": "Sawada-1726-4 Irabu, Miyakojima, Okinawa 906-0507, Japan", "lat": 24.834712, "lon": 125.156323 }, "geometry": { "type": "Point", "coordinates": [ 125.156323, 24.834712 ] } },
{ "type": "Feature", "properties": { "県名": "沖縄県", "スポット": "17END（ワンセブンエンド）", "住所": "Sawada Irabu, Miyakojima, Okinawa 906-0507, Japan", "lat": 24.842318, "lon": 125.140722 }, "geometry": { "type": "Point", "coordinates": [ 125.140722, 24.842318 ] } },
{ "type": "Feature", "properties": { "県名": "沖縄県", "スポット": "通り池", "住所": "Sawada Irabu, Miyakojima, Okinawa 906-0507, Japan", "lat": 24.8236648, "lon": 125.1361496 }, "geometry": { "type": "Point", "coordinates": [ 125.1361496, 24.8236648 ] } },
{ "type": "Feature", "properties": { "県名": "沖縄県", "スポット": "coral port Grab & Go", "住所": "Sawada-1727 番地 Irabu, Miyakojima, Okinawa 906-0507, Japan", "lat": 24.8288886, "lon": 125.1496759 }, "geometry": { "type": "Point", "coordinates": [ 125.1496759, 24.8288886 ] } },
{ "type": "Feature", "properties": { "県名": "沖縄県", "スポット": "パイナガマビーチ", "住所": "Shimozato Hirara, Miyakojima, Okinawa 906-0013, Japan", "lat": 24.8026123, "lon": 125.2703656 }, "geometry": { "type": "Point", "coordinates": [ 125.2703656, 24.8026123 ] } },
{ "type": "Feature", "properties": { "県名": "沖縄県", "スポット": "うえのドイツ文化村", "住所": "Miyaguni-775-1 Ueno, Miyakojima, Okinawa 906-0203, Japan", "lat": 24.7190238, "lon": 125.3236934 }, "geometry": { "type": "Point", "coordinates": [ 125.3236934, 24.7190238 ] } },
{ "type": "Feature", "properties": { "県名": "沖縄県", "スポット": "島cafe とぅんからや", "住所": "Arazato-1214 Ueno, Miyakojima, Okinawa 906-0202, Japan", "lat": 24.7256971, "lon": 125.3484426 }, "geometry": { "type": "Point", "coordinates": [ 125.3484426, 24.7256971 ] } },
{ "type": "Feature", "properties": { "県名": "沖縄県", "スポット": "インギャーマリンガーデン", "住所": "Imgya Marine Garden, Tomori-605-2 Gusukube, Miyakojima, Okinawa 906-0107, Japan", "lat": 24.7247007, "lon": 125.3583502 }, "geometry": { "type": "Point", "coordinates": [ 125.3583502, 24.7247007 ] } }
]
}
