{"type":"FeatureCollection","features":[{"type":"Feature","id":1,"geometry":{"type":"Point","coordinates":[127.69565350000005,26.218223900000055]},"properties":{"OBJECTID":1,"エリア":"沖縄県","ID":300680,"名前":"ヒューイットリゾート那覇","種類":"ホテル","郵便番号":"902-0067","住所":"沖縄県那覇市安里２－５－１６","緯度":26.218223900000002,"経度":127.69565350000001}},{"type":"Feature","id":2,"geometry":{"type":"Point","coordinates":[127.66592070000002,26.213430800000083]},"properties":{"OBJECTID":2,"エリア":"沖縄県","ID":376750,"名前":"ロワジール　スパタワー　那覇","種類":"ホテル","郵便番号":"900-0036","住所":"沖縄県那覇市西3-2-1","緯度":26.213430800000001,"経度":127.6659207}},{"type":"Feature","id":3,"geometry":{"type":"Point","coordinates":[125.33449440000004,24.723717900000054]},"properties":{"OBJECTID":3,"エリア":"沖縄県","ID":356578,"名前":"シギラベイサイドスイートアラマンダ","種類":"ホテル","郵便番号":"906-0202","住所":"沖縄県宮古島市上野新里９２６－２５","緯度":24.7237179,"経度":125.3344944}},{"type":"Feature","id":4,"geometry":{"type":"Point","coordinates":[127.93677940000009,26.537445700000035]},"properties":{"OBJECTID":4,"エリア":"沖縄県","ID":358232,"名前":"ザ・テラスクラブ　アット　ブセナ","種類":"ホテル","郵便番号":"905-0026","住所":"沖縄県名護市喜瀬１７５０","緯度":26.537445699999999,"経度":127.93677940000001}},{"type":"Feature","id":5,"geometry":{"type":"Point","coordinates":[127.81673290000003,26.454318200000046]},"properties":{"OBJECTID":5,"エリア":"沖縄県","ID":360623,"名前":"カフー　リゾート　フチャク　コンド・ホテル","種類":"ホテル","郵便番号":"904-0413","住所":"沖縄県国頭郡恩納村冨着志利福地原246-1","緯度":26.454318199999999,"経度":127.81673290000001}},{"type":"Feature","id":6,"geometry":{"type":"Point","coordinates":[125.33023160000005,24.72018630000008]},"properties":{"OBJECTID":6,"エリア":"沖縄県","ID":363722,"名前":"フェリスヴィラスイート宮古島・上野","種類":"コンドミニアム","郵便番号":"906-0203","住所":"沖縄県宮古島市上野宮国９３５番地８","緯度":24.720186300000002,"経度":125.3302316}},{"type":"Feature","id":7,"geometry":{"type":"Point","coordinates":[128.02052000000003,26.699158900000043]},"properties":{"OBJECTID":7,"エリア":"沖縄県","ID":364376,"名前":"アウェイ沖縄古宇利島リゾート","種類":"ホテル","郵便番号":"905-0406","住所":"沖縄県国頭郡今帰仁村古宇利４８０番２","緯度":26.6991589,"経度":128.02052}},{"type":"Feature","id":8,"geometry":{"type":"Point","coordinates":[127.67603340000005,26.210593600000038]},"properties":{"OBJECTID":8,"エリア":"沖縄県","ID":364502,"名前":"リーガロイヤルグラン沖縄","種類":"ホテル","郵便番号":"900-0029","住所":"沖縄県那覇市旭町１－９","緯度":26.210593599999999,"経度":127.67603339999999}},{"type":"Feature","id":9,"geometry":{"type":"Point","coordinates":[123.9913239,24.327139700000089]},"properties":{"OBJECTID":9,"エリア":"沖縄県","ID":366784,"名前":"はいむるぶし","種類":"ホテル","郵便番号":"907-1292","住所":"沖縄県八重山郡竹富町字小浜2930","緯度":24.3271397,"経度":123.9913239}},{"type":"Feature","id":10,"geometry":{"type":"Point","coordinates":[127.88310480000007,26.682721300000082]},"properties":{"OBJECTID":10,"エリア":"沖縄県","ID":367784,"名前":"アラマハイナ　コンドホテル","種類":"ホテル","郵便番号":"905-0205","住所":"沖縄県国頭郡本部町山川１４２１－１","緯度":26.682721300000001,"経度":127.8831048}},{"type":"Feature","id":11,"geometry":{"type":"Point","coordinates":[127.73041240000009,26.424507600000084]},"properties":{"OBJECTID":11,"エリア":"沖縄県","ID":368381,"名前":"グランディスタイル沖縄読谷ホテル＆リゾート","種類":"ホテル","郵便番号":"904-0325","住所":"沖縄県中頭郡読谷村字瀬名波５７１番１","緯度":26.424507599999998,"経度":127.73041240000001}},{"type":"Feature","id":12,"geometry":{"type":"Point","coordinates":[125.37620120000008,24.788708600000064]},"properties":{"OBJECTID":12,"エリア":"沖縄県","ID":368548,"名前":"ｔｈｅ　ｒｅｓｃａｐｅ　／　ザ・リスケープ（宮古島）","種類":"ホテル","郵便番号":"906-0105","住所":"沖縄県宮古島市城辺長間１９０１‐１","緯度":24.7887086,"経度":125.3762012}},{"type":"Feature","id":13,"geometry":{"type":"Point","coordinates":[127.85860920000005,26.649725800000056]},"properties":{"OBJECTID":13,"エリア":"沖縄県","ID":370007,"名前":"ヒルトン沖縄瀬底リゾート","種類":"ホテル","郵便番号":"905-0227","住所":"沖縄県国頭郡本部町瀬底５７５０","緯度":26.649725799999999,"経度":127.8586092}},{"type":"Feature","id":14,"geometry":{"type":"Point","coordinates":[123.77498420000006,24.421369200000072]},"properties":{"OBJECTID":14,"エリア":"沖縄県","ID":372796,"名前":"星野リゾート　西表島ホテル","種類":"ホテル","郵便番号":"907-1541","住所":"沖縄県八重山郡竹富町上原２－２","緯度":24.421369200000001,"経度":123.77498420000001}},{"type":"Feature","id":15,"geometry":{"type":"Point","coordinates":[127.68995410000002,26.214464700000065]},"properties":{"OBJECTID":15,"エリア":"沖縄県","ID":373185,"名前":"ハイアット　リージェンシー　那覇　沖縄","種類":"ホテル","郵便番号":"900-0013","住所":"沖縄県那覇市牧志３－６－２０","緯度":26.214464700000001,"経度":127.68995409999999}},{"type":"Feature","id":16,"geometry":{"type":"Point","coordinates":[127.70677990000002,26.219327300000089]},"properties":{"OBJECTID":16,"エリア":"沖縄県","ID":377388,"名前":"ノボテル沖縄那覇　（2018.9/13　GRAND　OPEN）","種類":"ホテル","郵便番号":"902-0062","住所":"沖縄県那覇市松川４０番地","緯度":26.2193273,"経度":127.7067799}},{"type":"Feature","id":17,"geometry":{"type":"Point","coordinates":[127.64053080000008,26.176219500000059]},"properties":{"OBJECTID":17,"エリア":"沖縄県","ID":352977,"名前":"琉球温泉　瀬長島ホテル","種類":"ホテル","郵便番号":"901-0233","住所":"沖縄県豊見城市瀬長１７４番地５","緯度":26.176219499999998,"経度":127.64053079999999}},{"type":"Feature","id":18,"geometry":{"type":"Point","coordinates":[125.1887435000001,24.809249800000089]},"properties":{"OBJECTID":18,"エリア":"沖縄県","ID":377836,"名前":"イラフ　ＳＵＩ　ラグジュアリーコレクションホテル　沖縄宮古","種類":"ホテル","郵便番号":"906-0503","住所":"沖縄県宮古島市伊良部字伊良部８１８番５他","緯度":24.8092498,"経度":125.1887435}},{"type":"Feature","id":19,"geometry":{"type":"Point","coordinates":[127.8580889000001,26.50827380000004]},"properties":{"OBJECTID":19,"エリア":"沖縄県","ID":381702,"名前":"ＡＮＡインターコンチネンタル万座ビーチリゾート","種類":"ホテル","郵便番号":"904-0493","住所":"沖縄県国頭郡恩納村瀬良垣２２６０","緯度":26.508273800000001,"経度":127.8580889}},{"type":"Feature","id":20,"geometry":{"type":"Point","coordinates":[127.86892480000006,26.512002400000085]},"properties":{"OBJECTID":20,"エリア":"沖縄県","ID":383182,"名前":"ハイアット　リージェンシー　瀬良垣アイランド　沖縄","種類":"ホテル","郵便番号":"904-0404","住所":"沖縄県国頭郡恩納村瀬良垣１１０８番地","緯度":26.5120024,"経度":127.8689248}},{"type":"Feature","id":21,"geometry":{"type":"Point","coordinates":[128.01597690000006,26.699421600000051]},"properties":{"OBJECTID":21,"エリア":"沖縄県","ID":384021,"名前":"ロワジールテラス＆ヴィラズ古宇利","種類":"ホテル","郵便番号":"905-0406","住所":"沖縄県国頭郡今帰仁村古宇利１２６","緯度":26.699421600000001,"経度":128.0159769}},{"type":"Feature","id":22,"geometry":{"type":"Point","coordinates":[127.67703080000001,26.213195700000085]},"properties":{"OBJECTID":22,"エリア":"沖縄県","ID":385020,"名前":"沖縄かりゆしリゾートＥＸＥＳ那覇（エグゼス那覇）","種類":"ホテル","郵便番号":"900-0021","住所":"沖縄県那覇市泉崎１－１１－５","緯度":26.2131957,"経度":127.6770308}},{"type":"Feature","id":23,"geometry":{"type":"Point","coordinates":[127.79151180000008,26.139441300000044]},"properties":{"OBJECTID":23,"エリア":"沖縄県","ID":385690,"名前":"百名伽藍","種類":"ホテル","郵便番号":"901-0603","住所":"沖縄県南城市玉城字百名山下原１２９９－１","緯度":26.139441300000001,"経度":127.79151179999999}},{"type":"Feature","id":24,"geometry":{"type":"Point","coordinates":[127.71475520000001,26.41468720000006]},"properties":{"OBJECTID":24,"エリア":"沖縄県","ID":386168,"名前":"ホテル日航アリビラ","種類":"ホテル","郵便番号":"904-0393","住所":"沖縄県中頭郡読谷村字儀間６００","緯度":26.414687199999999,"経度":127.7147552}},{"type":"Feature","id":25,"geometry":{"type":"Point","coordinates":[125.25326840000002,24.724513700000045]},"properties":{"OBJECTID":25,"エリア":"沖縄県","ID":389662,"名前":"宮古島来間リゾート　シーウッドホテル　","種類":"ホテル","郵便番号":"906-0306","住所":"沖縄県宮古島市下地来間４８４－７","緯度":24.724513699999999,"経度":125.2532684}},{"type":"Feature","id":26,"geometry":{"type":"Point","coordinates":[127.9358271000001,26.54060080000005]},"properties":{"OBJECTID":26,"エリア":"沖縄県","ID":390800,"名前":"ザ・ブセナテラス","種類":"ホテル","郵便番号":"905-0026","住所":"沖縄県名護市喜瀬１８０８","緯度":26.5406008,"経度":127.9358271}},{"type":"Feature","id":27,"geometry":{"type":"Point","coordinates":[127.93077580000011,26.516720800000087]},"properties":{"OBJECTID":27,"エリア":"沖縄県","ID":392130,"名前":"沖縄かりゆしリゾートＥＸＥＳ恩納（エグゼス恩納）","種類":"ホテル","郵便番号":"904-0401","住所":"沖縄県国頭郡恩納村名嘉真ヤーシ原2592-40","緯度":26.516720800000002,"経度":127.93077580000001}},{"type":"Feature","id":28,"geometry":{"type":"Point","coordinates":[124.12404910000009,24.357398000000046]},"properties":{"OBJECTID":28,"エリア":"沖縄県","ID":395230,"名前":"グランヴィリオリゾート石垣島Ocean’s　Wing　&　Villa　Garden","種類":"ホテル","郵便番号":"907-0024","住所":"沖縄県石垣市新川舟蔵２４８１番地－１","緯度":24.357398,"経度":124.12404909999999}},{"type":"Feature","id":29,"geometry":{"type":"Point","coordinates":[127.8054995,26.442018700000062]},"properties":{"OBJECTID":29,"エリア":"沖縄県","ID":395499,"名前":"HIYORIオーシャンリゾート沖縄","種類":"ホテル","郵便番号":"904-0415","住所":"沖縄県国頭郡恩納村仲泊１０５５－１","緯度":26.442018699999998,"経度":127.8054995}},{"type":"Feature","id":30,"geometry":{"type":"Point","coordinates":[127.72771310000007,26.273459600000081]},"properties":{"OBJECTID":30,"エリア":"沖縄県","ID":397596,"名前":"ムーンオーシャン宜野湾　ホテル＆レジデンス","種類":"ホテル","郵便番号":"901-2227","住所":"沖縄県宜野湾市宇地泊５５８－８","緯度":26.273459599999999,"経度":127.7277131}},{"type":"Feature","id":31,"geometry":{"type":"Point","coordinates":[127.75433270000008,26.320270100000073]},"properties":{"OBJECTID":31,"エリア":"沖縄県","ID":353162,"名前":"MB　GALLERY　CHATAN　by　THE　TERRACE　HOTELS","種類":"ホテル","郵便番号":"904-0115","住所":"沖縄県中頭郡北谷町美浜３８番１","緯度":26.320270099999998,"経度":127.75433270000001}},{"type":"Feature","id":32,"geometry":{"type":"Point","coordinates":[125.26228590000005,24.738966300000072]},"properties":{"OBJECTID":32,"エリア":"沖縄県","ID":347149,"名前":"宮古島東急ホテル＆リゾーツ","種類":"ホテル","郵便番号":"906-0305","住所":"沖縄県宮古島市下地字与那覇914","緯度":24.738966300000001,"経度":125.26228589999999}},{"type":"Feature","id":33,"geometry":{"type":"Point","coordinates":[127.87769390000005,26.504614200000049]},"properties":{"OBJECTID":33,"エリア":"沖縄県","ID":301688,"名前":"オリエンタルヒルズ沖縄","種類":"ホテル","郵便番号":"904-0404","住所":"沖縄県国頭郡恩納村瀬良垣79-1","緯度":26.504614199999999,"経度":127.8776939}},{"type":"Feature","id":34,"geometry":{"type":"Point","coordinates":[124.1153971,24.371565300000043]},"properties":{"OBJECTID":34,"エリア":"沖縄県","ID":320535,"名前":"フサキビーチリゾート　ホテル　＆　ヴィラズ","種類":"ホテル","郵便番号":"907-0024","住所":"沖縄県石垣市新川1625","緯度":24.3715653,"経度":124.1153971}},{"type":"Feature","id":35,"geometry":{"type":"Point","coordinates":[127.93841470000007,26.528028000000063]},"properties":{"OBJECTID":35,"エリア":"沖縄県","ID":303721,"名前":"かねひで喜瀬カントリークラブ","種類":"ホテル","郵便番号":"905-0026","住所":"沖縄県名護市喜瀬１１０７番地１","緯度":26.528027999999999,"経度":127.9384147}},{"type":"Feature","id":36,"geometry":{"type":"Point","coordinates":[127.93319010000005,26.530132200000082]},"properties":{"OBJECTID":36,"エリア":"沖縄県","ID":303813,"名前":"オリエンタルホテル　沖縄リゾート＆スパ","種類":"ホテル","郵便番号":"905-0026","住所":"沖縄県名護市喜瀬１４９０－１","緯度":26.530132200000001,"経度":127.9331901}},{"type":"Feature","id":37,"geometry":{"type":"Point","coordinates":[127.93984780000005,26.528085800000042]},"properties":{"OBJECTID":37,"エリア":"沖縄県","ID":307078,"名前":"ザ・リッツ・カールトン沖縄","種類":"ホテル","郵便番号":"905-0026","住所":"沖縄県名護市喜瀬１３４３－１","緯度":26.528085799999999,"経度":127.9398478}},{"type":"Feature","id":38,"geometry":{"type":"Point","coordinates":[127.87970360000008,26.699189000000047]},"properties":{"OBJECTID":38,"エリア":"沖縄県","ID":307948,"名前":"ホテル　オリオン　モトブ　リゾート＆スパ","種類":"ホテル","郵便番号":"905-0207","住所":"沖縄県国頭郡本部町字備瀬１４８－１","緯度":26.699189000000001,"経度":127.8797036}},{"type":"Feature","id":39,"geometry":{"type":"Point","coordinates":[127.75474240000005,26.318498100000056]},"properties":{"OBJECTID":39,"エリア":"沖縄県","ID":308366,"名前":"ヒルトン沖縄北谷リゾート","種類":"ホテル","郵便番号":"904-0115","住所":"沖縄県中頭郡北谷町美浜４０－１","緯度":26.318498099999999,"経度":127.7547424}},{"type":"Feature","id":40,"geometry":{"type":"Point","coordinates":[127.75961220000011,26.317731200000082]},"properties":{"OBJECTID":40,"エリア":"沖縄県","ID":310093,"名前":"テラスガーデン美浜リゾート","種類":"ホテル","郵便番号":"904-0115","住所":"沖縄県中頭郡北谷町美浜2-5-18","緯度":26.317731200000001,"経度":127.75961220000001}},{"type":"Feature","id":41,"geometry":{"type":"Point","coordinates":[127.80580240000006,26.453747800000087]},"properties":{"OBJECTID":41,"エリア":"沖縄県","ID":311816,"名前":"ホテルモントレ沖縄　スパ＆リゾート","種類":"ホテル","郵便番号":"904-0413","住所":"沖縄県国頭郡恩納村字冨着１５５０－１","緯度":26.453747799999999,"経度":127.8058024}},{"type":"Feature","id":42,"geometry":{"type":"Point","coordinates":[127.9226453,26.526806300000089]},"properties":{"OBJECTID":42,"エリア":"沖縄県","ID":312173,"名前":"ハレクラニ沖縄","種類":"ホテル","郵便番号":"904-0401","住所":"沖縄県国頭郡恩納村名嘉真１９６７－１","緯度":26.526806300000001,"経度":127.9226453}},{"type":"Feature","id":43,"geometry":{"type":"Point","coordinates":[127.96720800000003,26.469345100000055]},"properties":{"OBJECTID":43,"エリア":"沖縄県","ID":312605,"名前":"リブマックスアムス・カンナリゾートヴィラ","種類":"ホテル","郵便番号":"904-1304","住所":"沖縄県国頭郡宜野座村漢那３９７－１","緯度":26.469345100000002,"経度":127.967208}},{"type":"Feature","id":44,"geometry":{"type":"Point","coordinates":[127.8118055000001,26.460893900000087]},"properties":{"OBJECTID":44,"エリア":"沖縄県","ID":314623,"名前":"シェラトン沖縄サンマリーナリゾート","種類":"ホテル","郵便番号":"904-0413","住所":"沖縄県国頭郡恩納村字冨着66-1","緯度":26.460893899999999,"経度":127.81180550000001}},{"type":"Feature","id":45,"geometry":{"type":"Point","coordinates":[124.190336,24.335380100000066]},"properties":{"OBJECTID":45,"エリア":"沖縄県","ID":315164,"名前":"ＡＮＡインターコンチネンタル石垣リゾート","種類":"ホテル","郵便番号":"907-0002","住所":"沖縄県石垣市真栄里３５４－１","緯度":24.335380099999998,"経度":124.190336}},{"type":"Feature","id":46,"geometry":{"type":"Point","coordinates":[127.9279792000001,26.678906900000072]},"properties":{"OBJECTID":46,"エリア":"沖縄県","ID":317364,"名前":"ＭＡＧＡＣＨＡＢＡＲＵ　ＯＫＩＮＡＷＡ　マガチャバルオキナワ","種類":"ホテル","郵便番号":"905-0428","住所":"沖縄県国頭郡今帰仁村今泊２４９８","緯度":26.678906900000001,"経度":127.9279792}},{"type":"Feature","id":47,"geometry":{"type":"Point","coordinates":[127.89606910000009,26.49986430000007]},"properties":{"OBJECTID":47,"エリア":"沖縄県","ID":317370,"名前":"ジ・アッタテラス　クラブタワーズ","種類":"ホテル","郵便番号":"904-0402","住所":"沖縄県国頭郡恩納村字安富祖１０７９","緯度":26.499864299999999,"経度":127.89606910000001}},{"type":"Feature","id":48,"geometry":{"type":"Point","coordinates":[127.78883570000005,26.43535920000005]},"properties":{"OBJECTID":48,"エリア":"沖縄県","ID":327873,"名前":"ルネッサンスリゾートオキナワ","種類":"ホテル","郵便番号":"904-0416","住所":"沖縄県国頭郡恩納村山田3425-2","緯度":26.435359200000001,"経度":127.78883570000001}},{"type":"Feature","id":49,"geometry":{"type":"Point","coordinates":[127.65288140000007,26.132118700000035]},"properties":{"OBJECTID":49,"エリア":"沖縄県","ID":347081,"名前":"サザンビーチホテル＆リゾート沖縄","種類":"ホテル","郵便番号":"901-0306","住所":"沖縄県糸満市西崎町１－６－１","緯度":26.132118699999999,"経度":127.6528814}},{"type":"Feature","id":50,"geometry":{"type":"Point","coordinates":[128.0165793000001,26.707229600000062]},"properties":{"OBJECTID":50,"エリア":"沖縄県","ID":328409,"名前":"One　Suite　THE　GRAND（２０２１年７月オープン）","種類":"ホテル","郵便番号":"905-0406","住所":"沖縄県国頭郡今帰仁村古宇利２４５１","緯度":26.707229600000002,"経度":128.01657929999999}},{"type":"Feature","id":51,"geometry":{"type":"Point","coordinates":[128.15934460000005,26.735563700000057]},"properties":{"OBJECTID":51,"エリア":"沖縄県","ID":329205,"名前":"オクマ　プライベートビーチ　＆　リゾート","種類":"ホテル","郵便番号":"905-1412","住所":"沖縄県国頭郡国頭村字奥間９１３","緯度":26.7355637,"経度":128.1593446}},{"type":"Feature","id":52,"geometry":{"type":"Point","coordinates":[127.68064620000007,26.20898550000004]},"properties":{"OBJECTID":52,"エリア":"沖縄県","ID":329415,"名前":"沖縄ハーバービューホテル","種類":"ホテル","郵便番号":"900-0021","住所":"沖縄県那覇市泉崎２－４６","緯度":26.208985500000001,"経度":127.6806462}},{"type":"Feature","id":53,"geometry":{"type":"Point","coordinates":[124.21966610000004,24.357956700000045]},"properties":{"OBJECTID":53,"エリア":"沖縄県","ID":329478,"名前":"沖縄かりゆしリゾートＥＸＥＳ石垣（エグゼス石垣）","種類":"ホテル","郵便番号":"907-0243","住所":"沖縄県石垣市宮良９２３－１","緯度":24.357956699999999,"経度":124.2196661}},{"type":"Feature","id":54,"geometry":{"type":"Point","coordinates":[127.73846790000005,26.280481500000064]},"properties":{"OBJECTID":54,"エリア":"沖縄県","ID":329853,"名前":"ラグナガーデンホテル","種類":"ホテル","郵便番号":"901-2224","住所":"沖縄県宜野湾市真志喜4-1-1","緯度":26.2804815,"経度":127.7384679}},{"type":"Feature","id":55,"geometry":{"type":"Point","coordinates":[125.3391077,24.720611900000051]},"properties":{"OBJECTID":55,"エリア":"沖縄県","ID":330808,"名前":"ホテルシギラミラージュ","種類":"ホテル","郵便番号":"906-0202","住所":"沖縄県宮古島市上野新里１４０５－２０１","緯度":24.720611900000002,"経度":125.3391077}},{"type":"Feature","id":56,"geometry":{"type":"Point","coordinates":[123.99997240000005,24.33227160000007]},"properties":{"OBJECTID":56,"エリア":"沖縄県","ID":331004,"名前":"星野リゾート　リゾナーレ小浜島","種類":"ホテル","郵便番号":"907-1221","住所":"沖縄県八重山郡竹富町小浜２９５４","緯度":24.332271599999999,"経度":123.9999724}},{"type":"Feature","id":57,"geometry":{"type":"Point","coordinates":[127.6917823,26.223803900000064]},"properties":{"OBJECTID":57,"エリア":"沖縄県","ID":332964,"名前":"ザ・ナハテラス","種類":"ホテル","郵便番号":"900-0006","住所":"沖縄県那覇市おもろまち２－１４－１","緯度":26.2238039,"経度":127.6917823}},{"type":"Feature","id":58,"geometry":{"type":"Point","coordinates":[127.71834790000003,26.431928900000059]},"properties":{"OBJECTID":58,"エリア":"沖縄県","ID":333306,"名前":"ジ・ウザテラス　ビーチクラブヴィラズ","種類":"ホテル","郵便番号":"904-0328","住所":"沖縄県中頭郡読谷村宇座６３０－１","緯度":26.431928899999999,"経度":127.7183479}},{"type":"Feature","id":59,"geometry":{"type":"Point","coordinates":[125.3549862000001,24.72319850000008]},"properties":{"OBJECTID":59,"エリア":"沖縄県","ID":338156,"名前":"アラマンダ　インギャーコーラルヴィレッジ","種類":"ホテル","郵便番号":"906-0107","住所":"沖縄県宮古島市城辺友利５４２","緯度":24.723198499999999,"経度":125.3549862}},{"type":"Feature","id":60,"geometry":{"type":"Point","coordinates":[125.15968050000004,24.839065400000038]},"properties":{"OBJECTID":60,"エリア":"沖縄県","ID":339350,"名前":"フェリスヴィラスイート伊良部島・佐和田","種類":"貸別荘","郵便番号":"906-0507","住所":"沖縄県宮古島市伊良部佐和田１７２５－９","緯度":24.839065399999999,"経度":125.15968049999999}},{"type":"Feature","id":61,"geometry":{"type":"Point","coordinates":[128.0751494000001,26.55097690000008]},"properties":{"OBJECTID":61,"エリア":"沖縄県","ID":346040,"名前":"カヌチャベイホテル＆ヴィラズ","種類":"ホテル","郵便番号":"905-2263","住所":"沖縄県名護市字安部156-2","緯度":26.550976899999998,"経度":128.07514939999999}},{"type":"Feature","id":62,"geometry":{"type":"Point","coordinates":[127.75640280000005,26.313905400000067]},"properties":{"OBJECTID":62,"エリア":"沖縄県","ID":346964,"名前":"ザ・ビーチタワー沖縄","種類":"ホテル","郵便番号":"904-0115","住所":"沖縄県中頭郡北谷町字美浜８－６","緯度":26.313905399999999,"経度":127.7564028}},{"type":"Feature","id":63,"geometry":{"type":"Point","coordinates":[126.71779190000007,26.354569400000059]},"properties":{"OBJECTID":63,"エリア":"沖縄県","ID":398683,"名前":"サイプレスリゾート久米島","種類":"ホテル","郵便番号":"901-3132","住所":"沖縄県島尻郡久米島町字大原803-1","緯度":26.354569399999999,"経度":126.71779189999999}}]}