{
"type": "FeatureCollection",
"crs": { "type": "name", "properties": { "name": "urn:ogc:def:crs:OGC:1.3:CRS84" } },
"features": [
{ "type": "Feature", "properties": { "県名": "沖縄県", "エリア": "石垣島", "ビーチ": "石垣島サンセットビーチ", "住所": "Sunset Beach, 234-323 Hirakubo, Ishigaki, Okinawa 907-0331, Japan", "lat": 24.5642222, "lon": 124.2879722 }, "geometry": { "type": "Point", "coordinates": [ 124.2879722, 24.5642222 ] } },
{ "type": "Feature", "properties": { "県名": "沖縄県", "エリア": "石垣島", "ビーチ": "真栄里（まえさと）ビーチ", "住所": "Maezato, Ishigaki, Okinawa 907-0002, Japan", "lat": 24.3392353, "lon": 124.1837864 }, "geometry": { "type": "Point", "coordinates": [ 124.1837864, 24.3392353 ] } },
{ "type": "Feature", "properties": { "県名": "沖縄県", "エリア": "石垣島", "ビーチ": "フサキビーチ", "住所": "Arakawa, Ishigaki, Okinawa 907-0024, Japan", "lat": 24.3716091, "lon": 124.1145055 }, "geometry": { "type": "Point", "coordinates": [ 124.1145055, 24.3716091 ] } },
{ "type": "Feature", "properties": { "県名": "沖縄県", "エリア": "石垣島", "ビーチ": "明石海岸（あかいしかいがん）", "住所": "234-1 Ibaruma, Ishigaki, Okinawa 907-0332, Japan", "lat": 24.5368105, "lon": 124.3012573 }, "geometry": { "type": "Point", "coordinates": [ 124.3012573, 24.5368105 ] } },
{ "type": "Feature", "properties": { "県名": "沖縄県", "エリア": "石垣島", "ビーチ": "米原ビーチ（よねはらビーチ）", "住所": "Yonehara Beach, 644 Fukai, Ishigaki, Okinawa 907-0451, Japan", "lat": 24.4530279, "lon": 124.1856135 }, "geometry": { "type": "Point", "coordinates": [ 124.1856135, 24.4530279 ] } },
{ "type": "Feature", "properties": { "県名": "沖縄県", "エリア": "石垣島", "ビーチ": "底地（すくじ）ビーチ", "住所": "Sukuji Beach, Kabira, 907-0453, Japan", "lat": 24.4657911, "lon": 124.1239625 }, "geometry": { "type": "Point", "coordinates": [ 124.1239625, 24.4657911 ] } },
{ "type": "Feature", "properties": { "県名": "沖縄県", "エリア": "西表島（いりおもて）", "ビーチ": "星砂の浜", "住所": "Hoshizuna Beach, Uehara, Taketomi, Yaeyama District, Okinawa 907-1541, Japan", "lat": 24.4365338, "lon": 123.7774278 }, "geometry": { "type": "Point", "coordinates": [ 123.7774278, 24.4365338 ] } },
{ "type": "Feature", "properties": { "県名": "沖縄県", "エリア": "西表島（いりおもて）", "ビーチ": "南風見田の浜（はいみだのはま）", "住所": "Haemi, Taketomi, Yaeyama District, Okinawa 907-1434, Japan", "lat": 24.2723326, "lon": 123.8306269 }, "geometry": { "type": "Point", "coordinates": [ 123.8306269, 24.2723326 ] } },
{ "type": "Feature", "properties": { "県名": "沖縄県", "エリア": "西表島（いりおもて）", "ビーチ": "月ヶ浜(つきがはま)／トゥドゥマリの浜", "住所": "2-2 Uehara, Taketomi, Yaeyama District, Okinawa 907-1541, Japan", "lat": 24.4227846, "lon": 123.7745708 }, "geometry": { "type": "Point", "coordinates": [ 123.7745708, 24.4227846 ] } },
{ "type": "Feature", "properties": { "県名": "沖縄県", "エリア": "竹富島（たけとみ）", "ビーチ": "カイジ浜（星砂の浜）", "住所": "Taketomi, Yaeyama District, Okinawa 907-1101, Japan", "lat": 24.3201572, "lon": 124.0768929 }, "geometry": { "type": "Point", "coordinates": [ 124.0768929, 24.3201572 ] } },
{ "type": "Feature", "properties": { "県名": "沖縄県", "エリア": "竹富島（たけとみ）", "ビーチ": "アイヤル浜", "住所": "Taketomi, Yaeyama District, Okinawa 907-1101, Japan", "lat": 24.3199206, "lon": 124.099835 }, "geometry": { "type": "Point", "coordinates": [ 124.099835, 24.3199206 ] } },
{ "type": "Feature", "properties": { "県名": "沖縄県", "エリア": "竹富島（たけとみ）", "ビーチ": "コンドイ浜", "住所": "Kondoi Beach, Taketomi, Yaeyama District, Okinawa 907-1101, Japan", "lat": 24.3252872, "lon": 124.0775373 }, "geometry": { "type": "Point", "coordinates": [ 124.0775373, 24.3252872 ] } },
{ "type": "Feature", "properties": { "県名": "沖縄県", "エリア": "鳩間島", "ビーチ": "島仲浜", "住所": "Hatoma, Taketomi, Yaeyama District, Okinawa 907-1544, Japan", "lat": 24.4764192, "lon": 123.8213377 }, "geometry": { "type": "Point", "coordinates": [ 123.8213377, 24.4764192 ] } },
{ "type": "Feature", "properties": { "県名": "沖縄県", "エリア": "鳩間島", "ビーチ": "屋良浜（やらはま）", "住所": "Hatoma, Taketomi, Yaeyama District, Okinawa 907-1544, Japan", "lat": 24.4719878, "lon": 123.8154597 }, "geometry": { "type": "Point", "coordinates": [ 123.8154597, 24.4719878 ] } },
{ "type": "Feature", "properties": { "県名": "沖縄県", "エリア": "小浜島（こはま）", "ビーチ": "細崎の浜（くばざきのはま）", "住所": "Kohama, Taketomi, Yaeyama District, Okinawa 907-1221, Japan", "lat": 24.3340966, "lon": 123.9521543 }, "geometry": { "type": "Point", "coordinates": [ 123.9521543, 24.3340966 ] } },
{ "type": "Feature", "properties": { "県名": "沖縄県", "エリア": "黒島", "ビーチ": "仲本海岸", "住所": "Kuroshima, Taketomi, Yaeyama District, Okinawa 907-1311, Japan", "lat": 24.2323505, "lon": 123.9968498 }, "geometry": { "type": "Point", "coordinates": [ 123.9968498, 24.2323505 ] } },
{ "type": "Feature", "properties": { "県名": "沖縄県", "エリア": "波照間島（はてるま）", "ビーチ": "ニシ浜", "住所": "NISHIHAMA, Hateruma, Taketomi, Yaeyama District, Okinawa 907-1751, Japan", "lat": 24.0644618, "lon": 123.7621618 }, "geometry": { "type": "Point", "coordinates": [ 123.7621618, 24.0644618 ] } },
{ "type": "Feature", "properties": { "県名": "沖縄県", "エリア": "与那国島（よなぐに）", "ビーチ": "比川浜ビーチ（与那国）", "住所": "Japan, 〒907-1801 沖縄県八重山郡与那国町与那国 比川浜", "lat": 24.4424297, "lon": 122.982716 }, "geometry": { "type": "Point", "coordinates": [ 122.982716, 24.4424297 ] } },
{ "type": "Feature", "properties": { "県名": "沖縄県", "エリア": "与那国島（よなぐに）", "ビーチ": "ナンタ浜", "住所": "Japan, 〒907-1801 沖縄県八重山郡与那国町与那国 ナンタ浜", "lat": 24.4697629, "lon": 123.0008451 }, "geometry": { "type": "Point", "coordinates": [ 123.0008451, 24.4697629 ] } }
]
}
